{"type":"FeatureCollection","features":[{"type":"Feature","properties":{"uniqueidkey":"","name":"Adolf-Reichwein-Grundschule","namezusatz":"","description":"","Str":"Alter Kirchweg","Num":"2","PLZ":"56414","Ort":"Meudt","Adresszusatz":"","Kreis":"Westerwaldkreis","VG":"VG Wallmerod","Tel":"06435 8645","Tel2":"","Mobil":"","Fax":"","Mail":"grundschule.meudt@gmx.de","Web":"","Kategorie":"Schule: Grundschule","keywords":""},"geometry":{"type":"Point","coordinates":[7.89644,50.49703]},"id":"k5Mjg"},{"type":"Feature","properties":{"uniqueidkey":"","name":"Ahrbach-Grundschule","namezusatz":"","description":"","Str":"Oststraße","Num":"17","PLZ":"56414","Ort":"Niederahr","Adresszusatz":"","Kreis":"Westerwaldkreis","VG":"VG Wallmerod","Tel":"02602 69611","Tel2":"","Mobil":"","Fax":"","Mail":"ahrbach@gmx.de","Web":"","Kategorie":"Schule: Grundschule","keywords":""},"geometry":{"type":"Point","coordinates":[7.86621,50.49148]},"id":"IyMzM"},{"type":"Feature","properties":{"uniqueidkey":"","name":"Anne-Frank-Realschule plus","namezusatz":"","description":"","Str":"Wölfchesbitzstraße","Num":"2","PLZ":"56410","Ort":"Montabaur","Adresszusatz":"","Kreis":"Westerwaldkreis","VG":"VG Montabaur","Tel":"02602 999340","Tel2":"","Mobil":"","Fax":"","Mail":"info@afrs.de","Web":"https://www.afrs.de/","Kategorie":"Schule: Realschule plus","keywords":""},"geometry":{"type":"Point","coordinates":[7.82069,50.43877]},"id":"MzNzA"},{"type":"Feature","properties":{"uniqueidkey":"","name":"Astrid-Lindgren-Schule","namezusatz":"","description":"","Str":"Mozartstraße","Num":"8","PLZ":"56235","Ort":"Ransbach-Baumbach","Adresszusatz":"","Kreis":"Westerwaldkreis","VG":"VG Ransbach-Baumbach","Tel":"02623 2900","Tel2":"","Mobil":"","Fax":"","Mail":"kontakt@aliraba.de","Web":"","Kategorie":"Schule: Grundschule","keywords":""},"geometry":{"type":"Point","coordinates":[7.72908,50.46973]},"id":"MyMzM"},{"type":"Feature","properties":{"uniqueidkey":"","name":"Astrid-Lindgren-Schule","namezusatz":"","description":"","Str":"Schulstraße","Num":"8","PLZ":"56414","Ort":"Herschbach (Oww.)","Adresszusatz":"","Kreis":"Westerwaldkreis","VG":"VG Wallmerod","Tel":"06435 2780","Tel2":"","Mobil":"","Fax":"","Mail":"astrid-lindgren-gs-herschbach@gmx.de","Web":"","Kategorie":"Schule: Grundschule","keywords":""},"geometry":{"type":"Point","coordinates":[7.92504,50.50697]},"id":"g0MzY"},{"type":"Feature","properties":{"uniqueidkey":"","name":"Augst-Schule","namezusatz":"","description":"","Str":"Eitelborner Straße","Num":"22","PLZ":"56335","Ort":"Neuhäusel","Adresszusatz":"","Kreis":"Westerwaldkreis","VG":"VG Montabaur","Tel":"02620 586","Tel2":"","Mobil":"","Fax":"","Mail":"info@augst-schule.de","Web":"","Kategorie":"Schule: Grundschule","keywords":""},"geometry":{"type":"Point","coordinates":[7.7126,50.37851]},"id":"YwNTE"},{"type":"Feature","properties":{"uniqueidkey":"","name":"Berggarten-Schule Siershahn","namezusatz":"Förderschwerpunkt Lernen (L) / Sozial-emotionale Entwicklung (SE)","description":"","Str":"Schillerstraße","Num":"22","PLZ":"56427","Ort":"Siershahn","Adresszusatz":"","Kreis":"Westerwaldkreis","VG":"VG Wirges","Tel":"02623 5524","Tel2":"","Mobil":"","Fax":"02623 970213","Mail":"info@berggartenschule.de","Web":"http://berggartenschule.de/","Kategorie":"Schule: Förderschule","keywords":""},"geometry":{"type":"Point","coordinates":[7.7877,50.48661]},"id":"EwMDE"},{"type":"Feature","properties":{"uniqueidkey":"","name":"Berufliche Gymnasien (Fachrichtung Wirtschaft + Gesundheit und Soziales)","namezusatz":"","description":"","Str":"Von-Bodelschwingh-Straße","Num":"33","PLZ":"56410","Ort":"Montabaur","Adresszusatz":"","Kreis":"Westerwaldkreis","VG":"VG Montabaur","Tel":"02602 15750","Tel2":"","Mobil":"","Fax":"","Mail":"buero@bbs-montabaur.de","Web":"https://www.bbs-montabaur.de/","Kategorie":"Schule: Gymnasium","keywords":""},"geometry":{"type":"Point","coordinates":[7.81203,50.43972]},"id":"U3Njk"},{"type":"Feature","properties":{"uniqueidkey":"","name":"Berufliche Gymnasien (Fachrichtung Wirtschaft + Technik)","namezusatz":"","description":"","Str":"Hofwiesenstraße","Num":"1","PLZ":"56457","Ort":"Westerburg","Adresszusatz":"","Kreis":"Westerwaldkreis","VG":"VG Westerburg","Tel":"02663 99040","Tel2":"","Mobil":"","Fax":"","Mail":"info@bbs-westerburg.de","Web":"https://www.bbs-westerburg.de/","Kategorie":"Schule: Gymnasium","keywords":""},"geometry":{"type":"Point","coordinates":[7.97413,50.55662]},"id":"EyNjI"},{"type":"Feature","properties":{"uniqueidkey":"","name":"Berufsbildende Schule Montabaur","namezusatz":"","description":"","Str":"Von-Bodelschwingh-Straße","Num":"33","PLZ":"56410","Ort":"Montabaur","Adresszusatz":"","Kreis":"Westerwaldkreis","VG":"VG Montabaur","Tel":"02602 15750","Tel2":"","Mobil":"","Fax":"","Mail":"buero@bbs-montabaur.de","Web":"https://www.bbs-montabaur.de/","Kategorie":"Schule: Berufsbildende Schule","keywords":""},"geometry":{"type":"Point","coordinates":[7.81108,50.43942]},"id":"QzOTM"},{"type":"Feature","properties":{"uniqueidkey":"","name":"Berufsbildende Schule Montabaur / Außenstelle: Keramische Berufsschule","namezusatz":"","description":"","Str":"Am Scheidberg","Num":"6","PLZ":"56203","Ort":"Höhr-Grenzhausen","Adresszusatz":"","Kreis":"Westerwaldkreis","VG":"VG Höhr-Grenzhausen","Tel":"02624 3306","Tel2":"","Mobil":"","Fax":"","Mail":"bs-keramik@bbs-montabaur.de","Web":"https://www.bbs-montabaur.de/","Kategorie":"Schule: Berufsbildende Schule","keywords":""},"geometry":{"type":"Point","coordinates":[7.66624,50.4411]},"id":"YwMjI"},{"type":"Feature","properties":{"uniqueidkey":"","name":"Berufsbildende Schule Westerburg","namezusatz":"","description":"","Str":"Hofwiesenstraße","Num":"1","PLZ":"56457","Ort":"Westerburg","Adresszusatz":"","Kreis":"Westerwaldkreis","VG":"VG Westerburg","Tel":"02663 99040","Tel2":"","Mobil":"","Fax":"","Mail":"info@bbs-westerburg.de","Web":"https://www.bbs-westerburg.de/","Kategorie":"Schule: Berufsbildende Schule","keywords":""},"geometry":{"type":"Point","coordinates":[7.97438,50.55605]},"id":"EzODQ"},{"type":"Feature","properties":{"uniqueidkey":"","name":"Brüder-Grimm-Schule","namezusatz":"","description":"","Str":"Schulstraße","Num":"12","PLZ":"56459","Ort":"Guckheim","Adresszusatz":"","Kreis":"Westerwaldkreis","VG":"VG Westerburg","Tel":"06435 2761","Tel2":"","Mobil":"","Fax":"","Mail":"bgs.guckheim@googlemail.com","Web":"","Kategorie":"Schule: Grundschule","keywords":""},"geometry":{"type":"Point","coordinates":[7.94554,50.5292]},"id":"gzMzE"},{"type":"Feature","properties":{"uniqueidkey":"","name":"Burggarten-Schule Hachenburg","namezusatz":"Förderschwerpunkt Lernen (L) / Sozial-emotionale Entwicklung (SE)","description":"","Str":"Leipziger Straße","Num":"10","PLZ":"57627","Ort":"Hachenburg","Adresszusatz":"","Kreis":"Westerwaldkreis","VG":"VG Hachenburg","Tel":"02662 7771","Tel2":"","Mobil":"","Fax":"02662 939373","Mail":"burggartenschule@t-online.de","Web":"https://burggarten-schule.de/","Kategorie":"Schule: Förderschule","keywords":""},"geometry":{"type":"Point","coordinates":[7.82879,50.66139]},"id":"MzODk"},{"type":"Feature","properties":{"uniqueidkey":"","name":"Christiane-Herzog-Schule Neuwied","namezusatz":"Förderschwerpunkt Motorische Entwicklung (M)","description":"","Str":"Neuwieder Straße","Num":"21b","PLZ":"56566","Ort":"Neuwied","Adresszusatz":"","Kreis":"Neuwied","VG":"--","Tel":"02622 8922680","Tel2":"","Mobil":"","Fax":"","Mail":"","Web":"https://hh-christiane-herzog-schule.de/","Kategorie":"Schule: Förderschule","keywords":""},"geometry":{"type":"Point","coordinates":[7.5393,50.42435]},"id":"I0NzM"},{"type":"Feature","properties":{"uniqueidkey":"","name":"DRK Bildungszentrum Hachenburg (Krankenpflegeschule)","namezusatz":"","description":"","Str":"Theodor-Körner-Straße","Num":"10","PLZ":"57627","Ort":"Hachenburg","Adresszusatz":"","Kreis":"Westerwaldkreis","VG":"VG Hachenburg","Tel":"02662 853200","Tel2":"","Mobil":"","Fax":"","Mail":"bildungszentrum@drk-kh-hachenburg.de","Web":"https://www.drk-kh-hachenburg.de/","Kategorie":"Schule: Berufsbildende Schule"},"geometry":{"type":"Point","coordinates":[7.82823,50.65541]},"id":"M4NTk"},{"type":"Feature","properties":{"uniqueidkey":"","name":"Eisenbachtal-Grundschule","namezusatz":"","description":"","Str":"Schulstraße","Num":"17","PLZ":"56412","Ort":"Girod","Adresszusatz":"","Kreis":"Westerwaldkreis","VG":"VG Montabaur","Tel":"06485 527","Tel2":"","Mobil":"","Fax":"","Mail":"eisenbachtal@grundschule-girod.de","Web":"","Kategorie":"Schule: Grundschule","keywords":""},"geometry":{"type":"Point","coordinates":[7.90691,50.45151]},"id":"M4NjI"},{"type":"Feature","properties":{"uniqueidkey":"","name":"Erich-Kästner-Realschule plus","namezusatz":"","description":"","Str":"Osterfeldstraße","Num":"25","PLZ":"56235","Ort":"Ransbach-Baumbach","Adresszusatz":"","Kreis":"Westerwaldkreis","VG":"VG Ransbach-Baumbach","Tel":"02623 3084","Tel2":"","Mobil":"","Fax":"","Mail":"rsplus@eks-raba.de","Web":"https://www.eks-raba.de/","Kategorie":"Schule: Realschule plus","keywords":""},"geometry":{"type":"Point","coordinates":[7.72615,50.4566]},"id":"YzNDk"},{"type":"Feature","properties":{"uniqueidkey":"","name":"Erich-Kästner-Schule Grundschule","namezusatz":"","description":"","Str":"Günterstraße","Num":"13","PLZ":"56414","Ort":"Hundsangen","Adresszusatz":"","Kreis":"Westerwaldkreis","VG":"VG Wallmerod","Tel":"06435 961137","Tel2":"","Mobil":"","Fax":"","Mail":"gshundsangen@gmx.de","Web":"","Kategorie":"Schule: Grundschule","keywords":""},"geometry":{"type":"Point","coordinates":[7.99074,50.45522]},"id":"YzNTY"},{"type":"Feature","properties":{"uniqueidkey":"","name":"Ernst-Barlach-Realschule plus und Fachoberschule","namezusatz":"","description":"","Str":"Am Scheidberg","Num":"2","PLZ":"56203","Ort":"Höhr-Grenzhausen","Adresszusatz":"","Kreis":"Westerwaldkreis","VG":"VG Höhr-Grenzhausen","Tel":"02624 947500","Tel2":"","Mobil":"","Fax":"","Mail":"sekretariat@ebr-hg.de","Web":"https://www.ebr-hg.de/","Kategorie":"Schule: Realschule plus/Fachoberschule","keywords":""},"geometry":{"type":"Point","coordinates":[7.6654,50.44072]},"id":"k3NzQ"},{"type":"Feature","properties":{"uniqueidkey":"","name":"Ev. Gymnasium Bad Marienberg","namezusatz":"","description":"","Str":"Erlenweg","Num":"5","PLZ":"56470","Ort":"Bad Marienberg","Adresszusatz":"","Kreis":"Westerwaldkreis","VG":"VG Bad Marienberg","Tel":"02661 980870","Tel2":"","Mobil":"","Fax":"","Mail":"sekretariat@ev-gymnasium.de","Web":"https://www.evgbm.de/","Kategorie":"Schule: Gymnasium","keywords":""},"geometry":{"type":"Point","coordinates":[7.95565,50.65906]},"id":"g2ODA"},{"type":"Feature","properties":{"uniqueidkey":"","name":"Ev.Grundschule Mogendorf und Nordhofen","namezusatz":"","description":"","Str":"Töpferstraße","Num":"7","PLZ":"56424","Ort":"Mogendorf","Adresszusatz":"","Kreis":"Westerwaldkreis","VG":"VG Wirges","Tel":"02623 929503","Tel2":"","Mobil":"","Fax":"","Mail":"info@gsmogendorf.de","Web":"","Kategorie":"Schule: Grundschule","keywords":""},"geometry":{"type":"Point","coordinates":[7.75732,50.49239]},"id":"A5Nzk"},{"type":"Feature","properties":{"uniqueidkey":"","name":"FBZ - Berggartenschule Siershahn","namezusatz":"Förder- & Beratungszentrum","description":"","Str":"Schillerstraße","Num":"22","PLZ":"56427","Ort":"Siershahn","Adresszusatz":"","Kreis":"Westerwaldkreis","VG":"VG Wirges","Tel":"02623 5524","Tel2":"","Mobil":"","Fax":"02623 970213","Mail":"info@berggartenschule.de","Web":"http://berggartenschule.de/","Kategorie":"Schule: Förderschule","keywords":""},"geometry":{"type":"Point","coordinates":[7.78779,50.48647]},"id":"k4MDA"},{"type":"Feature","properties":{"uniqueidkey":"","name":"Freie Montessori-Schule Westerwald","namezusatz":"","description":"","Str":"Theo-Neeb-Straße","Num":"5","PLZ":"56457","Ort":"Westerburg","Adresszusatz":"","Kreis":"Westerwaldkreis","VG":"VG Westerburg","Tel":"02663 9114680","Tel2":"","Mobil":"","Fax":"","Mail":"sekretariat@montessori-westerwald.de","Web":"https://www.montessori-westerwald.de/","Kategorie":"Schule: Realschule plus","keywords":""},"geometry":{"type":"Point","coordinates":[7.95888,50.56879]},"id":"IyMTQ"},{"type":"Feature","properties":{"uniqueidkey":"","name":"Freie-Montessori-Schule Westerwald","namezusatz":"","description":"","Str":"Theo-Neeb-Straße","Num":"5","PLZ":"56457","Ort":"Westerburg","Adresszusatz":"","Kreis":"Westerwaldkreis","VG":"VG Westerburg","Tel":"02663 9114680","Tel2":"","Mobil":"","Fax":"","Mail":"sekretariat@montessori-westerwald.de","Web":"","Kategorie":"Schule: Grundschule","keywords":""},"geometry":{"type":"Point","coordinates":[7.95922,50.5686]},"id":"c5Mzk"},{"type":"Feature","properties":{"uniqueidkey":"","name":"Freiherr-vom-Stein-Realschule plus","namezusatz":"","description":"","Str":"Rheinstraße","Num":"12-14","PLZ":"56412","Ort":"Nentershausen","Adresszusatz":"","Kreis":"Westerwaldkreis","VG":"VG Montabaur","Tel":"06485 911093","Tel2":"","Mobil":"","Fax":"","Mail":"info@die-freiherr.de","Web":"https://www.die-freiherr.de/","Kategorie":"Schule: Realschule plus","keywords":""},"geometry":{"type":"Point","coordinates":[7.93998,50.41939]},"id":"QwMDM"},{"type":"Feature","properties":{"uniqueidkey":"","name":"Friedrich-Schweitzer-Schule Westerburg","namezusatz":"Förderschwerpunkt Lernen (L) / Sozial-emotionale Entwicklung (SE)","description":"","Str":"Königsberger Straße","Num":"12","PLZ":"56457","Ort":"Westerburg","Adresszusatz":"","Kreis":"Westerwaldkreis","VG":"VG Westerburg","Tel":"02663 94350","Tel2":"","Mobil":"","Fax":"02663 943511","Mail":"info@fssweb.de","Web":"","Kategorie":"Schule: Förderschule","keywords":""},"geometry":{"type":"Point","coordinates":[7.97572,50.55964]},"id":"M5OTM"},{"type":"Feature","properties":{"uniqueidkey":"","name":"Goetheschule","namezusatz":"","description":"","Str":"Schulstraße","Num":"9","PLZ":"56203","Ort":"Höhr-Grenzhausen","Adresszusatz":"","Kreis":"Westerwaldkreis","VG":"VG Höhr-Grenzhausen","Tel":"02624 4749","Tel2":"","Mobil":"","Fax":"","Mail":"goethe-schule@gs-hoehr-g.de","Web":"","Kategorie":"Schule: Grundschule","keywords":""},"geometry":{"type":"Point","coordinates":[7.66888,50.43511]},"id":"kwNDA"},{"type":"Feature","properties":{"uniqueidkey":"","name":"Grundschule \"Am Ahrbach\"","namezusatz":"","description":"","Str":"Schulstraße","Num":"25b","PLZ":"56412","Ort":"Ruppach-Goldhausen","Adresszusatz":"","Kreis":"Westerwaldkreis","VG":"VG Montabaur","Tel":"02602 8759","Tel2":"","Mobil":"","Fax":"","Mail":"sekretariat@gs-am-ahrbach.de","Web":"","Kategorie":"Schule: Grundschule","keywords":""},"geometry":{"type":"Point","coordinates":[7.87886,50.4642]},"id":"MwNDU"},{"type":"Feature","properties":{"uniqueidkey":"","name":"Grundschule \"Am Hähnchen\"","namezusatz":"","description":"","Str":"Gartenstraße","Num":"13","PLZ":"56412","Ort":"Niederelbert","Adresszusatz":"","Kreis":"Westerwaldkreis","VG":"VG Montabaur","Tel":"02602 2929","Tel2":"","Mobil":"","Fax":"","Mail":"gs_niederelbert@t-online.de","Web":"","Kategorie":"Schule: Grundschule","keywords":""},"geometry":{"type":"Point","coordinates":[7.81432,50.40815]},"id":"cxNDM"},{"type":"Feature","properties":{"uniqueidkey":"","name":"Grundschule Alpenrod","namezusatz":"","description":"","Str":"Schulstraße","Num":"8","PLZ":"57642","Ort":"Alpenrod","Adresszusatz":"","Kreis":"Westerwaldkreis","VG":"VG Hachenburg","Tel":"02662 7790","Tel2":"","Mobil":"","Fax":"","Mail":"schulleitung@grundschule-alpenrod.de","Web":"","Kategorie":"Schule: Grundschule","keywords":""},"geometry":{"type":"Point","coordinates":[7.87133,50.63163]},"id":"EwMDQ"},{"type":"Feature","properties":{"uniqueidkey":"","name":"Grundschule am Eichberg","namezusatz":"","description":"","Str":"Molsbergerstraße","Num":"9","PLZ":"56414","Ort":"Wallmerod","Adresszusatz":"","Kreis":"Westerwaldkreis","VG":"VG Wallmerod","Tel":"06435 6029","Tel2":"","Mobil":"","Fax":"","Mail":"gswallmerod@gmx.de","Web":"","Kategorie":"Schule: Grundschule","keywords":""},"geometry":{"type":"Point","coordinates":[7.95683,50.48279]},"id":"E3NDA"},{"type":"Feature","properties":{"uniqueidkey":"","name":"Grundschule am Schloss","namezusatz":"","description":"","Str":" Leipziger Straße","Num":"8","PLZ":"57627","Ort":"Hachenburg","Adresszusatz":"","Kreis":"Westerwaldkreis","VG":"VG Hachenburg","Tel":"02662 6764","Tel2":"","Mobil":"","Fax":"","Mail":"gs.amschloss@hachenburg.de","Web":"","Kategorie":"Schule: Grundschule","keywords":""},"geometry":{"type":"Point","coordinates":[7.8283,50.6613]},"id":"Y5MjY"},{"type":"Feature","properties":{"uniqueidkey":"","name":"Grundschule Atzelgift-Streithausen","namezusatz":"","description":"","Str":"Schulstraße","Num":"17","PLZ":"57629","Ort":"Atzelgift","Adresszusatz":"","Kreis":"Westerwaldkreis","VG":"VG Hachenburg","Tel":"02662 944247","Tel2":"","Mobil":"","Fax":"","Mail":"gs.atzelgift-streithausen@rz-online.de","Web":"","Kategorie":"Schule: Grundschule","keywords":""},"geometry":{"type":"Point","coordinates":[7.81884,50.6947]},"id":"ExNjc"},{"type":"Feature","properties":{"uniqueidkey":"","name":"Grundschule Gemünden","namezusatz":"","description":"","Str":"Hauptstraße","Num":"38","PLZ":"56459","Ort":"Gemünden","Adresszusatz":"","Kreis":"Westerwaldkreis","VG":"VG Westerburg","Tel":"02663 4336","Tel2":"","Mobil":"","Fax":"","Mail":"grundschule-gemuenden@web.de","Web":"","Kategorie":"Schule: Grundschule","keywords":""},"geometry":{"type":"Point","coordinates":[8.01669,50.5573]},"id":"c0OTc"},{"type":"Feature","properties":{"uniqueidkey":"","name":"Grundschule Hachenburg-Altstadt","namezusatz":"","description":"","Str":"Obere Kirchstraße","Num":"1","PLZ":"57627","Ort":"Hachenburg","Adresszusatz":"","Kreis":"Westerwaldkreis","VG":"VG Hachenburg","Tel":" 02662 1555","Tel2":"","Mobil":"","Fax":"","Mail":"grundschule-altstadt@t-online.de","Web":"","Kategorie":"Schule: Grundschule","keywords":""},"geometry":{"type":"Point","coordinates":[7.81466,50.65951]},"id":"c2MzU"},{"type":"Feature","properties":{"uniqueidkey":"","name":"Grundschule Haiderbach","namezusatz":"","description":"","Str":"Schulstraße","Num":"38","PLZ":"56237","Ort":"Wittgert","Adresszusatz":"","Kreis":"Westerwaldkreis","VG":"VG Ransbach-Baumbach","Tel":"02623 2216","Tel2":"","Mobil":"","Fax":"","Mail":"gs-haiderbach@web.de","Web":"","Kategorie":"Schule: Grundschule","keywords":""},"geometry":{"type":"Point","coordinates":[7.70054,50.50191]},"id":"A1MzI"},{"type":"Feature","properties":{"uniqueidkey":"","name":"Grundschule Herschbach","namezusatz":"","description":"","Str":"Herrenheeg","Num":"2","PLZ":"56249","Ort":"Herschbach (Uww.)","Adresszusatz":"","Kreis":"Westerwaldkreis","VG":"VG Selters","Tel":"02626 453","Tel2":"","Mobil":"","Fax":"","Mail":"gsherschbach@gmx.de","Web":"","Kategorie":"Schule: Grundschule","keywords":""},"geometry":{"type":"Point","coordinates":[7.74157,50.57305]},"id":"kzMTQ"},{"type":"Feature","properties":{"uniqueidkey":"","name":"Grundschule Hof","namezusatz":"","description":"","Str":"Schul- und Sportzentrum","Num":"","PLZ":"56472","Ort":"Hof","Adresszusatz":"","Kreis":"Westerwaldkreis","VG":"VG Bad Marienberg","Tel":"02661 5693","Tel2":"","Mobil":"","Fax":"","Mail":" info@grundschule-hof.de","Web":"","Kategorie":"Schule: Grundschule","keywords":""},"geometry":{"type":"Point","coordinates":[8.01963,50.67296]},"id":"I5OTQ"},{"type":"Feature","properties":{"uniqueidkey":"","name":"Grundschule Hoher Westerwald","namezusatz":"","description":"","Str":"Schulstraße","Num":"1","PLZ":"56477","Ort":"Nister-Möhrendorf","Adresszusatz":"","Kreis":"Westerwaldkreis","VG":"VG Rennerod","Tel":"02667 1440","Tel2":"","Mobil":"","Fax":"","Mail":"gshoherww@gmx.de","Web":"","Kategorie":"Schule: Grundschule","keywords":""},"geometry":{"type":"Point","coordinates":[8.07281,50.6565]},"id":"M2MTk"},{"type":"Feature","properties":{"uniqueidkey":"","name":"Grundschule Höhn \"St. Barbara\"","namezusatz":"","description":"","Str":"Zehntgrafstraße","Num":"12","PLZ":"56462","Ort":"Höhn","Adresszusatz":"","Kreis":"Westerwaldkreis","VG":"VG Westerburg","Tel":"02661 98660","Tel2":"","Mobil":"","Fax":"","Mail":"info@grundschule-hoehn.de","Web":"","Kategorie":"Schule: Grundschule","keywords":""},"geometry":{"type":"Point","coordinates":[7.98413,50.61659]},"id":"k0Njg"},{"type":"Feature","properties":{"uniqueidkey":"","name":"Grundschule im Buchfinkenland","namezusatz":"","description":"","Str":"Schulstraße","Num":"","PLZ":"56412","Ort":"Horbach","Adresszusatz":"","Kreis":"Westerwaldkreis","VG":"VG Montabaur","Tel":"06439 7611","Tel2":"","Mobil":"","Fax":"","Mail":"info@gs-horbach.de","Web":"","Kategorie":"Schule: Grundschule","keywords":""},"geometry":{"type":"Point","coordinates":[7.85705,50.37115]},"id":"YyNDI"},{"type":"Feature","properties":{"uniqueidkey":"","name":"Grundschule Kaden","namezusatz":"","description":"","Str":"Elberbütz","Num":"14","PLZ":"56459","Ort":"Kaden","Adresszusatz":"","Kreis":"Westerwaldkreis","VG":"VG Westerburg","Tel":"02663 6817","Tel2":"","Mobil":"","Fax":"","Mail":"grundschulekaden@googlemail.com","Web":"","Kategorie":"Schule: Grundschule","keywords":""},"geometry":{"type":"Point","coordinates":[7.92001,50.54858]},"id":"Q5MjA"},{"type":"Feature","properties":{"uniqueidkey":"","name":"Grundschule Kroppacher Schweiz","namezusatz":"","description":"","Str":"An der Schule","Num":"5","PLZ":"57612","Ort":"Kroppach","Adresszusatz":"","Kreis":"Westerwaldkreis","VG":"VG Hachenburg","Tel":"02688 561","Tel2":"","Mobil":"","Fax":"","Mail":"gs.kroppach@t-online.de","Web":"","Kategorie":"Schule: Grundschule","keywords":""},"geometry":{"type":"Point","coordinates":[7.73406,50.69443]},"id":"YwNjU"},{"type":"Feature","properties":{"uniqueidkey":"","name":"Grundschule Marienrachdorf","namezusatz":"","description":"","Str":"Theodor-Heuss-Ring","Num":"23","PLZ":"56242","Ort":"Marienrachdorf","Adresszusatz":"","Kreis":"Westerwaldkreis","VG":"VG Selters","Tel":"02626 5565","Tel2":"","Mobil":"","Fax":"","Mail":"gsmarienrachdorf@live.de","Web":"","Kategorie":"Schule: Grundschule","keywords":""},"geometry":{"type":"Point","coordinates":[7.70702,50.54905]},"id":"Y0ODc"},{"type":"Feature","properties":{"uniqueidkey":"","name":"Grundschule Mosaik","namezusatz":"","description":"","Str":"Schulstraße","Num":"12","PLZ":"57614","Ort":"Borod","Adresszusatz":"","Kreis":"Westerwaldkreis","VG":"VG Hachenburg","Tel":"02688 287","Tel2":"","Mobil":"","Fax":"","Mail":"info@grundschule-borod.de","Web":"","Kategorie":"Schule: Grundschule","keywords":""},"geometry":{"type":"Point","coordinates":[7.70685,50.66533]},"id":"kyODE"},{"type":"Feature","properties":{"uniqueidkey":"","name":"Grundschule Nauort","namezusatz":"","description":"","Str":"Am Hofacker","Num":"6","PLZ":"56237","Ort":"Nauort","Adresszusatz":"","Kreis":"Westerwaldkreis","VG":"VG Ransbach-Baumbach","Tel":"02601 606","Tel2":"","Mobil":"","Fax":"","Mail":"info@grundschule-nauort.de","Web":"","Kategorie":"Schule: Grundschule","keywords":""},"geometry":{"type":"Point","coordinates":[7.62574,50.4678]},"id":"E4MTY"},{"type":"Feature","properties":{"uniqueidkey":"","name":"Grundschule Neunkhausen","namezusatz":"","description":"","Str":"Kirchstraße","Num":"11","PLZ":"57520","Ort":"Neunkhausen","Adresszusatz":"","Kreis":"Westerwaldkreis","VG":"VG Bad Marienberg","Tel":"02661 63793","Tel2":"","Mobil":"","Fax":"","Mail":"gs-neunkhausen@t-online.de","Web":"","Kategorie":"Schule: Grundschule","keywords":""},"geometry":{"type":"Point","coordinates":[7.90804,50.70232]},"id":"E1MTg"},{"type":"Feature","properties":{"uniqueidkey":"","name":"Grundschule Nistertal","namezusatz":"","description":"","Str":"Am Sportplatz","Num":"9","PLZ":"57647","Ort":"Nistertal","Adresszusatz":"","Kreis":"Westerwaldkreis","VG":"VG Bad Marienberg","Tel":"02661 40491","Tel2":"","Mobil":"","Fax":"","Mail":"schulleitung-gs-nistertal@t-online.de","Web":"","Kategorie":"Schule: Grundschule","keywords":""},"geometry":{"type":"Point","coordinates":[7.89855,50.62663]},"id":"U4NDE"},{"type":"Feature","properties":{"uniqueidkey":"","name":"Grundschule Unnau","namezusatz":"","description":"","Str":"Schwimmbadstraße","Num":"32","PLZ":"57648","Ort":"Unnau","Adresszusatz":"","Kreis":"Westerwaldkreis","VG":"VG Bad Marienberg","Tel":"02661 64358","Tel2":"","Mobil":"","Fax":"","Mail":"gs-unnau@t-online.de","Web":"","Kategorie":"Schule: Grundschule","keywords":""},"geometry":{"type":"Point","coordinates":[7.91281,50.65164]},"id":"U3MjE"},{"type":"Feature","properties":{"uniqueidkey":"","name":"Grundschule Waldschule","namezusatz":"","description":"","Str":"Buchenstraße","Num":"52","PLZ":"56410","Ort":"Horressen","Adresszusatz":"","Kreis":"Westerwaldkreis","VG":"VG Montabaur","Tel":"02602 3188","Tel2":"","Mobil":"","Fax":"","Mail":"waldschule-horressen@t-online.de","Web":"","Kategorie":"Schule: Grundschule","keywords":""},"geometry":{"type":"Point","coordinates":[7.79209,50.4364]},"id":"c1NDA"},{"type":"Feature","properties":{"uniqueidkey":"","name":"Gymnasium im Kannenbäckerland","namezusatz":"","description":"","Str":"Am Scheidberg","Num":"4","PLZ":"56203","Ort":"Höhr-Grenzhausen","Adresszusatz":"","Kreis":"Westerwaldkreis","VG":"VG Höhr-Grenzhausen","Tel":"02624 94080","Tel2":"","Mobil":"","Fax":"","Mail":"info@gik-hg.de","Web":"https://www.gik-hg.de/","Kategorie":"Schule: Gymnasium","keywords":""},"geometry":{"type":"Point","coordinates":[7.66606,50.44035]},"id":"UyOTY"},{"type":"Feature","properties":{"uniqueidkey":"","name":"Heinrich-Roth-Realschule plus","namezusatz":"","description":"","Str":"Humboldtstraße","Num":"15","PLZ":"56410","Ort":"Montabaur","Adresszusatz":"","Kreis":"Westerwaldkreis","VG":"VG Montabaur","Tel":"02602 6749320","Tel2":"","Mobil":"","Fax":"","Mail":"sekretariat@hrs-mt.de","Web":"https://www.hrs-mt.de/","Kategorie":"Schule: Realschule plus","keywords":""},"geometry":{"type":"Point","coordinates":[7.81493,50.44088]},"id":"kzMjc"},{"type":"Feature","properties":{"uniqueidkey":"","name":"Integrierte Gesamtschule Selters","namezusatz":"","description":"","Str":"Jahnstraße","Num":"24-28","PLZ":"56242","Ort":"Selters","Adresszusatz":"","Kreis":"Westerwaldkreis","VG":"VG Selters","Tel":" 02626 978411","Tel2":"","Mobil":"","Fax":"","Mail":"info@igs-selters.de","Web":"https://www.igs-selters.de/","Kategorie":"Schule: Integrierte Gesamtschule","keywords":""},"geometry":{"type":"Point","coordinates":[7.76323,50.53394]},"id":"EwOTI"},{"type":"Feature","properties":{"uniqueidkey":"","name":"Joseph-Kehrein-Schule","namezusatz":"","description":"","Str":"Gelbachstraße","Num":"1","PLZ":"56410","Ort":"Montabaur","Adresszusatz":"","Kreis":"Westerwaldkreis","VG":"VG Montabaur","Tel":"02602 4555","Tel2":"","Mobil":"","Fax":"","Mail":"buero@gs-montabaur.de","Web":"","Kategorie":"Schule: Grundschule","keywords":""},"geometry":{"type":"Point","coordinates":[7.83434,50.43441]},"id":"EyNzg"},{"type":"Feature","properties":{"uniqueidkey":"","name":"Kastanienschule","namezusatz":"","description":"","Str":"Schulstraße","Num":"9","PLZ":"56412","Ort":"Welschneudorf","Adresszusatz":"","Kreis":"Westerwaldkreis","VG":"VG Montabaur","Tel":"02608 801","Tel2":"","Mobil":"","Fax":"","Mail":"info@gs-welschneudorf.de","Web":"","Kategorie":"Schule: Grundschule","keywords":""},"geometry":{"type":"Point","coordinates":[7.79843,50.37037]},"id":"MxNDk"},{"type":"Feature","properties":{"uniqueidkey":"","name":"Katharina-Kasper-Akademie","namezusatz":"","description":"","Str":"Katharina-Kasper-Straße","Num":"12","PLZ":"56428","Ort":"Dernbach","Adresszusatz":"","Kreis":"Westerwaldkreis","VG":"VG Wirges","Tel":"02602 9301300","Tel2":"","Mobil":"","Fax":"","Mail":"info@katharina-kasper-akademie.de","Web":"https://www.katharina-kasper-akademie.de/","Kategorie":"Schule: Berufsbildende Schule","keywords":""},"geometry":{"type":"Point","coordinates":[7.78901,50.45527]},"id":"IzNTI"},{"type":"Feature","properties":{"uniqueidkey":"","name":"Katharina-Kasper-Schule Wirges","namezusatz":"Förderschwerpunkt Motorische Entwicklung (M) / Ganzheitliche Entwicklung (GE)","description":"","Str":"Theodor-Heuss-Ring","Num":"8","PLZ":"56422","Ort":"Wirges","Adresszusatz":"","Kreis":"Westerwaldkreis","VG":"VG Wirges","Tel":"02602 6340","Tel2":"","Mobil":"","Fax":"02602 81420","Mail":"","Web":"http://www.katharina-kasper-schule.de/","Kategorie":"Schule: Förderschule","keywords":""},"geometry":{"type":"Point","coordinates":[7.80092,50.4704]},"id":"A0ODg"},{"type":"Feature","properties":{"uniqueidkey":"","name":"Konrad-Adenauer-Gymnasium","namezusatz":"","description":"","Str":"Wörthstraße","Num":"16","PLZ":"56457","Ort":"Westerburg","Adresszusatz":"","Kreis":"Westerwaldkreis","VG":"VG Westerburg","Tel":"02663 94380","Tel2":"","Mobil":"","Fax":"","Mail":"sekretariat@kag-westerburg.de","Web":"https://www.kag-westerburg.de/","Kategorie":"Schule: Gymnasium","keywords":""},"geometry":{"type":"Point","coordinates":[7.97577,50.55904]},"id":"EwODA"},{"type":"Feature","properties":{"uniqueidkey":"","name":"Landesschule für Blinde und Sehbehinderte Neuwied","namezusatz":"Förderschwerpunkt Sehen (BLS)","description":"","Str":"Feldkircher Straße","Num":"100","PLZ":"56567","Ort":"Neuwied","Adresszusatz":"","Kreis":"Neuwied","VG":"--","Tel":"02631 9700","Tel2":"","Mobil":"","Fax":"02631 970180","Mail":"blindenschule-neuwied@lbs-neuwied.lsjv.rlp.de","Web":"","Kategorie":"Schule: Förderschule","keywords":""},"geometry":{"type":"Point","coordinates":[7.4371,50.45471]},"id":"A1MjU"},{"type":"Feature","properties":{"uniqueidkey":"","name":"Landesschule für Gehörlose und Schwerhörige Neuwied","namezusatz":"Förderschwerpunkt Hören (GLS)","description":"","Str":"Elisabethstraße","Num":"46/48","PLZ":"56564","Ort":"Neuwied","Adresszusatz":"","Kreis":"Neuwied","VG":"--","Tel":"02631 34260","Tel2":"","Mobil":"","Fax":"02631 3426150","Mail":"Sekretariat-LGS@lgs-neuwied.lsjv.rlp.de","Web":"https://www.lgs-neuwied.de/","Kategorie":"Schule: Förderschule","keywords":""},"geometry":{"type":"Point","coordinates":[7.4719,50.42404]},"id":"QyNTE"},{"type":"Feature","properties":{"uniqueidkey":"","name":"Lasterbachschule","namezusatz":"","description":"","Str":"Dörnerstraße","Num":"19","PLZ":"56479","Ort":"Elsoff","Adresszusatz":"","Kreis":"Westerwaldkreis","VG":"VG Rennerod","Tel":"02664 5160","Tel2":"","Mobil":"","Fax":"","Mail":"lasterbachschule@gmx.de","Web":"","Kategorie":"Schule: Grundschule","keywords":""},"geometry":{"type":"Point","coordinates":[8.10828,50.57406]},"id":"I0NjE"},{"type":"Feature","properties":{"uniqueidkey":"","name":"Linden-Grundschule","namezusatz":"","description":"","Str":"Hundsänger Straße","Num":"1","PLZ":"56414","Ort":"Weroth","Adresszusatz":"","Kreis":"Westerwaldkreis","VG":"VG Wallmerod","Tel":"06435 1066","Tel2":"","Mobil":"","Fax":"","Mail":"gs-weroth@gmx.de","Web":"","Kategorie":"Schule: Grundschule","keywords":""},"geometry":{"type":"Point","coordinates":[7.95026,50.46022]},"id":"I4MzM"},{"type":"Feature","properties":{"uniqueidkey":"","name":"Löwenzahnschule","namezusatz":"","description":"","Str":"Schulstraße","Num":"6","PLZ":"56479","Ort":"Irmtraut","Adresszusatz":"","Kreis":"Westerwaldkreis","VG":"VG Rennerod","Tel":"06436 3365","Tel2":"","Mobil":"","Fax":"","Mail":"loewenzahnschule_gs_irmtraut@web.de","Web":"","Kategorie":"Schule: Grundschule","keywords":""},"geometry":{"type":"Point","coordinates":[8.06112,50.55707]},"id":"QzMzM"},{"type":"Feature","properties":{"uniqueidkey":"","name":"Marie-Curie-Realschule plus","namezusatz":"","description":"","Str":"Erlenweg","Num":"3","PLZ":"56470","Ort":"Bad Marienberg","Adresszusatz":"","Kreis":"Westerwaldkreis","VG":"VG Bad Marienberg","Tel":"02661 914410","Tel2":"","Mobil":"","Fax":"","Mail":"info@rsplus-badmarienberg.de","Web":"https://www.rsplus-badmarienberg.de/","Kategorie":"Schule: Realschule plus","keywords":""},"geometry":{"type":"Point","coordinates":[7.95455,50.65822]},"id":"E0OTM"},{"type":"Feature","properties":{"uniqueidkey":"","name":"Melchiades-Best-Schule","namezusatz":"","description":"","Str":"Waldstraße","Num":"21","PLZ":"56204","Ort":"Hillscheid","Adresszusatz":"","Kreis":"Westerwaldkreis","VG":"VG Höhr-Grenzhausen","Tel":"02624 3321","Tel2":"","Mobil":"","Fax":"","Mail":"post@gs-hillscheid.de","Web":"","Kategorie":"Schule: Grundschule","keywords":""},"geometry":{"type":"Point","coordinates":[7.70287,50.40505]},"id":"E3MjQ"},{"type":"Feature","properties":{"uniqueidkey":"","name":"Micheal-Ende-Schule Bad Marienberg","namezusatz":"Förderschwerpunkt Lernen (L) / Sozial-emotionale Entwicklung (SE)","description":"","Str":"Erlenweg","Num":"2a","PLZ":"56470","Ort":"Bad Marienberg","Adresszusatz":"","Kreis":"Westerwaldkreis","VG":"VG Bad Marienberg","Tel":"02661 91080","Tel2":"","Mobil":"","Fax":"02661 910890","Mail":"","Web":"https://mesbm.de/","Kategorie":"Schule: Förderschule","keywords":""},"geometry":{"type":"Point","coordinates":[7.95574,50.65757]},"id":"kzNTA"},{"type":"Feature","properties":{"uniqueidkey":"","name":"Mons-Tabor-Gymnasium","namezusatz":"","description":"","Str":"Von-Bodelschwingh-Straße","Num":"35","PLZ":"56410","Ort":"Montabaur","Adresszusatz":"","Kreis":"Westerwaldkreis","VG":"VG Montabaur","Tel":"02602 15800","Tel2":"","Mobil":"","Fax":"","Mail":"sekretariat@mtg-mt.de","Web":"https://www.mtg-mt.de/","Kategorie":"Schule: Gymnasium","keywords":""},"geometry":{"type":"Point","coordinates":[7.81495,50.44001]},"id":"I5MTA"},{"type":"Feature","properties":{"uniqueidkey":"","name":"Oberwaldschule","namezusatz":"","description":"","Str":"Jahnstraße","Num":"16-20","PLZ":"56242","Ort":"Selters","Adresszusatz":"","Kreis":"Westerwaldkreis","VG":"VG Selters","Tel":"02626 920100","Tel2":"","Mobil":"","Fax":"","Mail":"oberwaldschule-gs-selters@web.de","Web":"","Kategorie":"Schule: Grundschule","keywords":""},"geometry":{"type":"Point","coordinates":[7.76149,50.53256]},"id":"g1MTk"},{"type":"Feature","properties":{"uniqueidkey":"","name":"Otfried-Preussler-Grundschule","namezusatz":"","description":"","Str":"Schulstraße","Num":"7","PLZ":"56271","Ort":"Roßbach","Adresszusatz":"","Kreis":"Westerwaldkreis","VG":"VG Hachenburg","Tel":"02680 717","Tel2":"","Mobil":"","Fax":"","Mail":"grundschule-rossbach@t-online.de","Web":"","Kategorie":"Schule: Grundschule","keywords":""},"geometry":{"type":"Point","coordinates":[7.68262,50.60335]},"id":"gyNzA"},{"type":"Feature","properties":{"uniqueidkey":"","name":"Overberggrundschule","namezusatz":"","description":"","Str":"Overbergstraße","Num":"20","PLZ":"56427","Ort":"Siershahn","Adresszusatz":"","Kreis":"Westerwaldkreis","VG":"VG Wirges","Tel":"02623 6074780 ","Tel2":"","Mobil":"","Fax":"","Mail":"info@grundschule-siershahn.de","Web":"","Kategorie":"Schule: Grundschule","keywords":""},"geometry":{"type":"Point","coordinates":[7.78791,50.48739]},"id":"I0OTg"},{"type":"Feature","properties":{"uniqueidkey":"","name":"Peter-Altmeier-Gymnasium (Landesmusikgymnasium)","namezusatz":"","description":"","Str":"Humboldtstraße","Num":"6","PLZ":"56410","Ort":"Montabaur","Adresszusatz":"","Kreis":"Westerwaldkreis","VG":"VG Montabaur","Tel":"02602 134980","Tel2":"","Mobil":"","Fax":"","Mail":"info@musikgymnasium.de","Web":"https://www.musikgymnasium.de/","Kategorie":"Schule: Gymnasium","keywords":""},"geometry":{"type":"Point","coordinates":[7.81809,50.44079]},"id":"E1OTY"},{"type":"Feature","properties":{"uniqueidkey":"","name":"Pfarrer-Giesendorf-Schule","namezusatz":"","description":"","Str":"Hilchenstraße","Num":"14","PLZ":"56428","Ort":"Dernbach","Adresszusatz":"","Kreis":"Westerwaldkreis","VG":"VG Wirges","Tel":"02602 7267","Tel2":"","Mobil":"","Fax":"","Mail":"info@grundschule-dernbach.de","Web":"","Kategorie":"Schule: Grundschule","keywords":""},"geometry":{"type":"Point","coordinates":[7.78688,50.45872]},"id":"cwOTk"},{"type":"Feature","properties":{"uniqueidkey":"","name":"Pfarrer-Toni-Sode-Schule","namezusatz":"","description":"","Str":" Aarstraße","Num":"11","PLZ":"56412","Ort":"Nentershausen","Adresszusatz":"","Kreis":"Westerwaldkreis","VG":"VG Montabaur","Tel":"06485 91087","Tel2":"","Mobil":"","Fax":"","Mail":"schule@gs-nentershausen.de","Web":"","Kategorie":"Schule: Grundschule","keywords":""},"geometry":{"type":"Point","coordinates":[7.94022,50.4179]},"id":"IzMDc"},{"type":"Feature","properties":{"uniqueidkey":"","name":"Priv. Gymnasium Marienstatt","namezusatz":"","description":"","Str":"Abtei Marienstatt","Num":"","PLZ":"57629","Ort":"Marienstatt","Adresszusatz":"","Kreis":"Westerwaldkreis","VG":"VG Hachenburg","Tel":"02662 969860","Tel2":"","Mobil":"","Fax":"","Mail":"gymnasium@marienstatt.de","Web":"https://www.marienstatt.de/","Kategorie":"Schule: Gymnasium","keywords":""},"geometry":{"type":"Point","coordinates":[7.80347,50.68435]},"id":"IwMjQ"},{"type":"Feature","properties":{"uniqueidkey":"","name":"Privates Gymnasium - Raiffeisen-Campus","namezusatz":"","description":"","Str":"Burgweg","Num":"21-23","PLZ":"56428","Ort":"Dernbach","Adresszusatz":"","Kreis":"Westerwaldkreis","VG":"VG Wirges","Tel":"02602 1067335","Tel2":"","Mobil":"","Fax":"","Mail":"info@raiffeisen-campus.de","Web":"https://www.raiffeisen-campus.de/","Kategorie":"Schule: Gymnasium","keywords":""},"geometry":{"type":"Point","coordinates":[7.79915,50.45174]},"id":"U3OTE"},{"type":"Feature","properties":{"uniqueidkey":"","name":"Realschule plus Hoher Westerwald","namezusatz":"","description":"","Str":"Kohlaustraße","Num":"17","PLZ":"56477","Ort":"Rennerod","Adresszusatz":"","Kreis":"Westerwaldkreis","VG":"VG Rennerod","Tel":"02664 6300","Tel2":"","Mobil":"","Fax":"","Mail":"sekretariat@realschuleplus-rennerod.com","Web":"https://www.realschuleplus-rennerod.com/","Kategorie":"Schule: Realschule plus","keywords":""},"geometry":{"type":"Point","coordinates":[8.07293,50.60761]},"id":"AzODY"},{"type":"Feature","properties":{"uniqueidkey":"","name":"Realschule plus Salz","namezusatz":"","description":"","Str":"Schulstraße","Num":"10","PLZ":"56414","Ort":"Salz","Adresszusatz":"","Kreis":"Westerwaldkreis","VG":"VG Wallmerod","Tel":"06435 96450","Tel2":"","Mobil":"","Fax":"","Mail":"post@schule-salz.de","Web":"https://www.schule-salz.de/","Kategorie":"Schule: Realschule plus","keywords":""},"geometry":{"type":"Point","coordinates":[7.96489,50.51305]},"id":"EwOTM"},{"type":"Feature","properties":{"uniqueidkey":"","name":"Realschule plus und Fachoberschule - Hachenburger Löwe","namezusatz":"","description":"","Str":"Kantstraße","Num":"19","PLZ":"57627","Ort":"Hachenburg","Adresszusatz":"","Kreis":"Westerwaldkreis","VG":"VG Hachenburg","Tel":"02662 1790","Tel2":"","Mobil":"","Fax":"","Mail":"sekretariat@realschule-hachenburg.de","Web":"https://www.realschule-hachenburg.de/","Kategorie":"Schule: Realschule plus/Fachoberschule","keywords":""},"geometry":{"type":"Point","coordinates":[7.82034,50.65619]},"id":"MzMDk"},{"type":"Feature","properties":{"uniqueidkey":"","name":"Realschule plus Westerburg","namezusatz":"","description":"","Str":"Wörthstraße","Num":"1","PLZ":"56457","Ort":"Westerburg","Adresszusatz":"","Kreis":"Westerwaldkreis","VG":"VG Westerburg","Tel":"02663 98010","Tel2":"","Mobil":"","Fax":"","Mail":"sekretariat@realschuleplus-westerburg.de","Web":"https://www.realschuleplus-westerburg.de/","Kategorie":"Schule: Realschule plus","keywords":""},"geometry":{"type":"Point","coordinates":[7.97763,50.55783]},"id":"g0NTg"},{"type":"Feature","properties":{"uniqueidkey":"","name":"Regenbogen-Schule","namezusatz":"","description":"","Str":"Breslauer Straße","Num":"","PLZ":"56457","Ort":"Westerburg","Adresszusatz":"","Kreis":"Westerwaldkreis","VG":"VG Westerburg","Tel":"02663 2609","Tel2":"","Mobil":"","Fax":"","Mail":"regenbogenschule.westerburg@gmail.com","Web":"","Kategorie":"Schule: Grundschule","keywords":""},"geometry":{"type":"Point","coordinates":[7.98001,50.55804]},"id":"YzNzQ"},{"type":"Feature","properties":{"uniqueidkey":"","name":"Schellenberg-Schule","namezusatz":"","description":"","Str":"Schulstraße","Num":"9","PLZ":"56479","Ort":"Hellenhahn-Schellenberg","Adresszusatz":"","Kreis":"Westerwaldkreis","VG":"VG Rennerod","Tel":"02664 6763","Tel2":"","Mobil":"","Fax":"","Mail":"schellenberg-schule@gmx.de","Web":"","Kategorie":"Schule: Grundschule","keywords":""},"geometry":{"type":"Point","coordinates":[8.02445,50.61414]},"id":"c1ODY"},{"type":"Feature","properties":{"uniqueidkey":"","name":"Schiller-Schule Höhr-Grenzhausen","namezusatz":"Förderschwerpunkt Lernen (L) / Sozial-emotionale Entwicklung (SE)","description":"","Str":"Rathausstraße","Num":"131","PLZ":"56203","Ort":"Höhr-Grenzhausen","Adresszusatz":"","Kreis":"Westerwaldkreis","VG":"VG Höhr-Grenzhausen","Tel":"02624 95440","Tel2":"","Mobil":"","Fax":"02624 954420","Mail":"verwaltung@schiller-schule-hg.de","Web":"http://www.schiller-schule-hg.de/","Kategorie":"Schule: Förderschule","keywords":""},"geometry":{"type":"Point","coordinates":[7.65758,50.43808]},"id":"U1NTk"},{"type":"Feature","properties":{"uniqueidkey":"","name":"Schule am Rothberg Hachenburg","namezusatz":"Förderschwerpunkt Sprache (SP)","description":"","Str":"Lohmühle","Num":"2a","PLZ":"57627","Ort":"Hachenburg","Adresszusatz":"","Kreis":"Westerwaldkreis","VG":"VG Hachenburg","Tel":"02662 939457","Tel2":"","Mobil":"","Fax":"02662 942231","Mail":"info@schule-am-rothenberg.de","Web":"https://www.schule-am-rothenberg.de/","Kategorie":"Schule: Förderschule","keywords":""},"geometry":{"type":"Point","coordinates":[7.82131,50.65679]},"id":"cwMzQ"},{"type":"Feature","properties":{"uniqueidkey":"","name":"SFB - Burggarten- Schule Hachenburg","namezusatz":"Stammschule für Förderung und Beratung","description":"","Str":"Leipziger Straße","Num":"10","PLZ":"57627","Ort":"Hachenburg","Adresszusatz":"","Kreis":"Westerwaldkreis","VG":"VG Hachenburg","Tel":"02662 7771","Tel2":"","Mobil":"","Fax":"02662 939373","Mail":"burggartenschule@t-online.de","Web":"https://burggarten-schule.de/","Kategorie":"Schule: Förderschule","keywords":""},"geometry":{"type":"Point","coordinates":[7.82888,50.66142]},"id":"gxMjM"},{"type":"Feature","properties":{"uniqueidkey":"","name":"SFB - Christiane-Herzog-Schule Neuwied","namezusatz":"Stammschule für Förderung und Beratung","description":"","Str":"Neuwieder Straße","Num":"21b","PLZ":"56566","Ort":"Neuwied","Adresszusatz":"","Kreis":"Neuwied","VG":"--","Tel":"02622 8922680","Tel2":"","Mobil":"","Fax":"","Mail":"","Web":"https://hh-christiane-herzog-schule.de/","Kategorie":"Schule: Förderschule","keywords":""},"geometry":{"type":"Point","coordinates":[7.53943,50.42401]},"id":"M2MTE"},{"type":"Feature","properties":{"uniqueidkey":"","name":"SFB - Friedrich-Schweitzer-Schule Westerburg","namezusatz":"Stammschule für Förderung und Beratung","description":"","Str":"Königsberger Straße","Num":"12","PLZ":"56457","Ort":"Westerburg","Adresszusatz":"","Kreis":"Westerwaldkreis","VG":"VG Westerburg","Tel":"02663 94350","Tel2":"","Mobil":"","Fax":"02663 943511","Mail":"info@fssweb.de","Web":"","Kategorie":"Schule: Förderschule","keywords":""},"geometry":{"type":"Point","coordinates":[7.97566,50.55956]},"id":"EzMzg"},{"type":"Feature","properties":{"uniqueidkey":"","name":"SFB - Katharina-Kasper-Schule Wirges","namezusatz":"Stammschule für Förderung und Beratung","description":"","Str":"Theodor-Heuss-Ring","Num":"8","PLZ":"56422","Ort":"Wirges","Adresszusatz":"","Kreis":"Westerwaldkreis","VG":"VG Wirges","Tel":"02602 6340","Tel2":"","Mobil":"","Fax":"02602 81420","Mail":"","Web":"http://www.katharina-kasper-schule.de/","Kategorie":"Schule: Förderschule","keywords":""},"geometry":{"type":"Point","coordinates":[7.80132,50.47027]},"id":"g1Mzg"},{"type":"Feature","properties":{"uniqueidkey":"","name":"SFB - Landesschule für Blinde und Sehbehinderte Neuwied","namezusatz":"Stammschule für Förderung und Beratung","description":"","Str":"Feldkircher Straße","Num":"100","PLZ":"56567","Ort":"Neuwied","Adresszusatz":"","Kreis":"Neuwied","VG":"--","Tel":"02631 9700","Tel2":"","Mobil":"","Fax":"02631 970180","Mail":"blindenschule-neuwied@lbs-neuwied.lsjv.rlp.de","Web":"","Kategorie":"Schule: Förderschule","keywords":""},"geometry":{"type":"Point","coordinates":[7.43682,50.45458]},"id":"M5Njc"},{"type":"Feature","properties":{"uniqueidkey":"","name":"SFB - Landesschule für Gehörlose und Schwerhörige Neuwied","namezusatz":"Stammschule für Förderung und Beratung","description":"","Str":"Elisabethstraße","Num":"46/48","PLZ":"56564","Ort":"Neuwied","Adresszusatz":"","Kreis":"Neuwied","VG":"--","Tel":"02631 34260","Tel2":"","Mobil":"","Fax":"02631 3426150","Mail":"Sekretariat-LGS@lgs-neuwied.lsjv.rlp.de","Web":"https://www.lgs-neuwied.de/","Kategorie":"Schule: Förderschule","keywords":""},"geometry":{"type":"Point","coordinates":[7.47204,50.42419]},"id":"A1Njc"},{"type":"Feature","properties":{"uniqueidkey":"","name":"SFB - Michael-Ende-Schule Bad Marienberg","namezusatz":"Stammschule für Förderung und Beratung","description":"","Str":"Erlenweg","Num":"2a","PLZ":"56470","Ort":"Bad Marienberg","Adresszusatz":"","Kreis":"Westerwaldkreis","VG":"VG Bad Marienberg","Tel":"02661 91080","Tel2":"","Mobil":"","Fax":"02661 910890","Mail":"","Web":"https://mesbm.de/","Kategorie":"Schule: Förderschule","keywords":""},"geometry":{"type":"Point","coordinates":[7.95548,50.65739]},"id":"czNjQ"},{"type":"Feature","properties":{"uniqueidkey":"","name":"SFB - Schiller-Schule Höhr-Grenzhausen","namezusatz":"Stammschule für Förderung und Beratung","description":"","Str":"Rathausstraße","Num":"131","PLZ":"56203","Ort":"Höhr-Grenzhausen","Adresszusatz":"","Kreis":"Westerwaldkreis","VG":"VG Höhr-Grenzhausen","Tel":"02624 95440","Tel2":"","Mobil":"","Fax":"02624 954420","Mail":"verwaltung@schiller-schule-hg.de","Web":"http://www.schiller-schule-hg.de/","Kategorie":"Schule: Förderschule","keywords":""},"geometry":{"type":"Point","coordinates":[7.65742,50.43819]},"id":"c1NjQ"},{"type":"Feature","properties":{"uniqueidkey":"","name":"SFB - Schule am Rothberg Hachenburg","namezusatz":"Stammschule für Förderung und Beratung","description":"","Str":"Lohmühle","Num":"2a","PLZ":"57627","Ort":"Hachenburg","Adresszusatz":"","Kreis":"Westerwaldkreis","VG":"VG Hachenburg","Tel":"02662 939457","Tel2":"","Mobil":"","Fax":"02662 942231","Mail":"info@schule-am-rothenberg.de","Web":"https://www.schule-am-rothenberg.de/","Kategorie":"Schule: Förderschule","keywords":""},"geometry":{"type":"Point","coordinates":[7.82161,50.65682]},"id":"M3NTA"},{"type":"Feature","properties":{"uniqueidkey":"","name":"SFB - Wilhelm-Albrecht-Schule Höhn","namezusatz":"Stammschule für Förderung und Beratung","description":"","Str":"Zehntgrafstraße","Num":"14","PLZ":"56462","Ort":"Höhn","Adresszusatz":"","Kreis":"Westerwaldkreis","VG":"VG Rennerod","Tel":"02622 8921200","Tel2":"","Mobil":"","Fax":"","Mail":"","Web":"https://hh-wilhelm-albrecht-schule.de/","Kategorie":"Schule: Förderschule","keywords":""},"geometry":{"type":"Point","coordinates":[7.98274,50.61554]},"id":"M1Nzg"},{"type":"Feature","properties":{"uniqueidkey":"","name":"Sonnenbergschule Müschenbach","namezusatz":"","description":"","Str":"Schulstraße","Num":"24","PLZ":"57629","Ort":"Müschenbach","Adresszusatz":"","Kreis":"Westerwaldkreis","VG":"VG Hachenburg","Tel":"02662 6390","Tel2":"","Mobil":"","Fax":"","Mail":"gs.mueschenbach@t-online.de","Web":"","Kategorie":"Schule: Grundschule","keywords":""},"geometry":{"type":"Point","coordinates":[7.78583,50.68062]},"id":"IxOTY"},{"type":"Feature","properties":{"uniqueidkey":"","name":"Sonnenfeldschule Hilgert","namezusatz":"","description":"","Str":"Bergstraße","Num":"24","PLZ":"56206","Ort":"Hilgert","Adresszusatz":"","Kreis":"Westerwaldkreis","VG":"VG Höhr-Grenzhausen","Tel":"02624 7423","Tel2":"","Mobil":"","Fax":"","Mail":"grundschule-hilgert@hoehr-grenzhausen.de","Web":"","Kategorie":"Schule: Grundschule","keywords":""},"geometry":{"type":"Point","coordinates":[7.69103,50.45717]},"id":"U5NzQ"},{"type":"Feature","properties":{"uniqueidkey":"","name":"Sonnental-Grundschule","namezusatz":"","description":"","Str":"Kapellenweg","Num":"10","PLZ":"56459","Ort":"Langenhahn","Adresszusatz":"","Kreis":"Westerwaldkreis","VG":"VG Westerburg","Tel":"02663 6005","Tel2":"","Mobil":"","Fax":"","Mail":"gslangenhahn@web.de","Web":"","Kategorie":"Schule: Grundschule","keywords":""},"geometry":{"type":"Point","coordinates":[7.92142,50.5824]},"id":"c4MDA"},{"type":"Feature","properties":{"uniqueidkey":"","name":"Staatliche Fachschule für Keramik","namezusatz":"","description":"","Str":"Am Scheidberg","Num":"6","PLZ":"56203","Ort":"Höhr-Grenzhausen","Adresszusatz":"","Kreis":"Westerwaldkreis","VG":"VG Höhr-Grenzhausen","Tel":"02624 94070","Tel2":"","Mobil":"","Fax":"","Mail":"schulleitung@fs-keramik.de","Web":"https://www.fs-keramik.de/","Kategorie":"Schule: Berufsbildende Schule","keywords":""},"geometry":{"type":"Point","coordinates":[7.66672,50.44127]},"id":"MzODc"},{"type":"Feature","properties":{"uniqueidkey":"","name":"Steinsbergschule","namezusatz":"","description":"","Str":"Westernoher Straße","Num":"30","PLZ":"56477","Ort":"Rennerod","Adresszusatz":"","Kreis":"Westerwaldkreis","VG":"VG Rennerod","Tel":"02664 6360","Tel2":"","Mobil":"","Fax":"","Mail":"steinsberg.grundschule@t-online.de","Web":"","Kategorie":"Schule: Grundschule","keywords":""},"geometry":{"type":"Point","coordinates":[8.06917,50.60394]},"id":"ExNzI"},{"type":"Feature","properties":{"uniqueidkey":"","name":"Stöffelmaus-Schule Grundschule","namezusatz":"","description":"","Str":"Zum Heckelchen","Num":"","PLZ":"56459","Ort":"Stockum-Püschen","Adresszusatz":"","Kreis":"Westerwaldkreis","VG":"VG Westerburg","Tel":"02661 40285","Tel2":"","Mobil":"","Fax":"","Mail":"info@stoeffelmausschule.de","Web":"","Kategorie":"Schule: Grundschule","keywords":""},"geometry":{"type":"Point","coordinates":[7.90383,50.60679]},"id":"I2NzI"},{"type":"Feature","properties":{"uniqueidkey":"","name":"Theodor-Heuss-Grundschule","namezusatz":"","description":"","Str":"Theodor-Heuss-Ring","Num":"4","PLZ":"56422","Ort":"Wirges","Adresszusatz":"","Kreis":"Westerwaldkreis","VG":"VG Wirges","Tel":"02602 9494110","Tel2":"","Mobil":"","Fax":"","Mail":"info@grundschule-wirges.de","Web":"","Kategorie":"Schule: Grundschule","keywords":""},"geometry":{"type":"Point","coordinates":[7.80197,50.46965]},"id":"I1NTA"},{"type":"Feature","properties":{"uniqueidkey":"","name":"Theodor-Heuss-Realschule plus","namezusatz":"","description":"","Str":"Theodor-Heuss-Ring","Num":"2-4","PLZ":"56422","Ort":"Wirges","Adresszusatz":"","Kreis":"Westerwaldkreis","VG":"VG Wirges","Tel":"02602 937310","Tel2":"","Mobil":"","Fax":"","Mail":"post@rpluswirges.de","Web":"https://www.rpluswirges.de/","Kategorie":"Schule: Realschule plus","keywords":""},"geometry":{"type":"Point","coordinates":[7.79898,50.46935]},"id":"Q5MzQ"},{"type":"Feature","properties":{"uniqueidkey":"","name":"Unesco Projektschule Norken","namezusatz":"","description":"","Str":"Schulstraße","Num":"1","PLZ":"57629","Ort":"Norken","Adresszusatz":"","Kreis":"Westerwaldkreis","VG":"VG Bad Marienberg","Tel":"02661 3440","Tel2":"","Mobil":"","Fax":"","Mail":"info@grundschule-norken.de","Web":"","Kategorie":"Schule: Grundschule","keywords":""},"geometry":{"type":"Point","coordinates":[7.89803,50.67267]},"id":"E2Mjg"},{"type":"Feature","properties":{"uniqueidkey":"","name":"Wilhelm-Albrecht-Schule Höhn","namezusatz":"Förderschwerpunkt Motorische Entwicklung (M) / Ganzheitliche Entwicklung (GE)","description":"","Str":"Zehntgrafstraße","Num":"14","PLZ":"56462","Ort":"Höhn","Adresszusatz":"","Kreis":"Westerwaldkreis","VG":"VG Westerburg","Tel":"02622 8921200","Tel2":"","Mobil":"","Fax":"","Mail":"","Web":"https://hh-wilhelm-albrecht-schule.de/","Kategorie":"Schule: Förderschule","keywords":""},"geometry":{"type":"Point","coordinates":[7.9829,50.61565]},"id":"M1MDE"},{"type":"Feature","properties":{"uniqueidkey":"","name":"Wolfsteinschule Bad Marienberg","namezusatz":"","description":"","Str":"Erlenweg","Num":"2","PLZ":"56470","Ort":"Bad Marienberg","Adresszusatz":"","Kreis":"Westerwaldkreis","VG":"VG Bad Marienberg","Tel":"02661 914450","Tel2":"","Mobil":"","Fax":"","Mail":"wolfsteinschule@t-online.de","Web":"","Kategorie":"Schule: Grundschule","keywords":""},"geometry":{"type":"Point","coordinates":[7.95458,50.65738]},"id":"Q3MzY"}],"_umap_options":{"displayOnLoad":true,"inCaption":true,"browsable":true,"editMode":"advanced","remoteData":{},"name":"Schulen","color":"Chocolate","iconClass":"Circle","id":3016136,"permissions":{"edit_status":0},"description":""}}
